[
    {
        "char": "a",
        "citys": [
            {
                "area_code": 85,
                "area_name": "阿克苏地区",
                "area_type": 2,
                "geo": null,
                "sub": [
                    {
                        "area_code": 725,
                        "area_name": "阿瓦提县",
                        "area_type": 3,
                        "geo": null,
                        "sup_business_area": 0,
                        "point": {
                            "lng": 80.379523,
                            "lat": 40.65054
                        }
                    },
                    {
                        "area_code": 726,
                        "area_name": "沙雅县",
                        "area_type": 3,
                        "geo": null,
                        "sup_business_area": 0,
                        "point": {
                            "lng": 82.788515,
                            "lat": 41.227746
                        }
                    },
                    {
                        "area_code": 728,
                        "area_name": "柯坪县",
                        "area_type": 3,
                        "geo": null,
                        "sup_business_area": 0,
                        "point": {
                            "lng": 79.053323,
                            "lat": 40.514217
                        }
                    },
                    {
                        "area_code": 732,
                        "area_name": "库车县",
                        "area_type": 3,
                        "geo": null,
                        "sup_business_area": 0,
                        "point": {
                            "lng": 82.96868,
                            "lat": 41.723255
                        }
                    },
                    {
                        "area_code": 733,
                        "area_name": "乌什县",
                        "area_type": 3,
                        "geo": null,
                        "sup_business_area": 0,
                        "point": {
                            "lng": 79.23104,
                            "lat": 41.220789
                        }
                    },
                    {
                        "area_code": 738,
                        "area_name": "新和县",
                        "area_type": 3,
                        "geo": null,
                        "sup_business_area": 0,
                        "point": {
                            "lng": 82.615743,
                            "lat": 41.55413
                        }
                    },
                    {
                        "area_code": 739,
                        "area_name": "温宿县",
                        "area_type": 3,
                        "geo": null,
                        "sup_business_area": 0,
                        "point": {
                            "lng": 80.245704,
                            "lat": 41.282929
                        }
                    },
                    {
                        "area_code": 742,
                        "area_name": "拜城县",
                        "area_type": 3,
                        "geo": null,
                        "sup_business_area": 0,
                        "point": {
                            "lng": 81.880009,
                            "lat": 41.802814
                        }
                    },
                    {
                        "area_code": 1094,
                        "area_name": "阿克苏市",
                        "area_type": 3,
                        "geo": null,
                        "sup_business_area": 0,
                        "point": {
                            "lng": 80.269807,
                            "lat": 41.173789
                        }
                    }
                ],
                "pinyin": [
                    "a",
                    "ke",
                    "su"
                ],
                "py": "aks",
                "point": {
                    "lng": 80.266525,
                    "lat": 41.174545
                }
            },
            {
                "area_code": 96,
                "area_name": "阿勒泰地区",
                "area_type": 2,
                "geo": null,
                "sub": [
                    {
                        "area_code": 776,
                        "area_name": "福海县",
                        "area_type": 3,
                        "geo": null,
                        "sup_business_area": 0,
                        "point": {
                            "lng": 87.493127,
                            "lat": 47.118241
                        }
                    },
                    {
                        "area_code": 778,
                        "area_name": "青河县",
                        "area_type": 3,
                        "geo": null,
                        "sup_business_area": 0,
                        "point": {
                            "lng": 90.381983,
                            "lat": 46.685295
                        }
                    },
                    {
                        "area_code": 780,
                        "area_name": "富蕴县",
                        "area_type": 3,
                        "geo": null,
                        "sup_business_area": 0,
                        "point": {
                            "lng": 89.531883,
                            "lat": 46.999871
                        }
                    },
                    {
                        "area_code": 783,
                        "area_name": "阿勒泰市",
                        "area_type": 3,
                        "geo": null,
                        "sup_business_area": 0,
                        "point": {
                            "lng": 88.139056,
                            "lat": 47.832754
                        }
                    },
                    {
                        "area_code": 784,
                        "area_name": "吉木乃县",
                        "area_type": 3,
                        "geo": null,
                        "sup_business_area": 0,
                        "point": {
                            "lng": 85.882012,
                            "lat": 47.44893
                        }
                    },
                    {
                        "area_code": 785,
                        "area_name": "布尔津县",
                        "area_type": 3,
                        "geo": null,
                        "sup_business_area": 0,
                        "point": {
                            "lng": 86.869539,
                            "lat": 47.706056
                        }
                    },
                    {
                        "area_code": 786,
                        "area_name": "哈巴河县",
                        "area_type": 3,
                        "geo": null,
                        "sup_business_area": 0,
                        "point": {
                            "lng": 86.425622,
                            "lat": 48.066829
                        }
                    }
                ],
                "pinyin": [
                    "a",
                    "le",
                    "tai"
                ],
                "py": "alt",
                "point": {
                    "lng": 88.146856,
                    "lat": 47.851367
                }
            },
            {
                "area_code": 731,
                "area_name": "阿拉尔市",
                "area_type": 2,
                "geo": null,
                "pinyin": [
                    "a",
                    "la",
                    "er"
                ],
                "py": "ale",
                "point": {
                    "lng": 81.287224,
                    "lat": 40.553846
                }
            },
            {
                "area_code": 103,
                "area_name": "阿里地区",
                "area_type": 2,
                "geo": null,
                "sub": [
                    {
                        "area_code": 846,
                        "area_name": "措勤县",
                        "area_type": 3,
                        "geo": null,
                        "sup_business_area": 0,
                        "point": {
                            "lng": 85.159107,
                            "lat": 31.022199
                        }
                    },
                    {
                        "area_code": 847,
                        "area_name": "普兰县",
                        "area_type": 3,
                        "geo": null,
                        "sup_business_area": 0,
                        "point": {
                            "lng": 81.183986,
                            "lat": 30.299021
                        }
                    },
                    {
                        "area_code": 849,
                        "area_name": "札达县",
                        "area_type": 3,
                        "geo": null,
                        "sup_business_area": 0,
                        "point": {
                            "lng": 79.809634,
                            "lat": 31.484892
                        }
                    },
                    {
                        "area_code": 850,
                        "area_name": "革吉县",
                        "area_type": 3,
                        "geo": null,
                        "sup_business_area": 0,
                        "point": {
                            "lng": 81.157562,
                            "lat": 32.402435
                        }
                    },
                    {
                        "area_code": 851,
                        "area_name": "噶尔县",
                        "area_type": 3,
                        "geo": null,
                        "sup_business_area": 0,
                        "point": {
                            "lng": 80.102479,
                            "lat": 32.506039
                        }
                    },
                    {
                        "area_code": 1089,
                        "area_name": "日土县",
                        "area_type": 3,
                        "geo": null,
                        "sup_business_area": 0,
                        "point": {
                            "lng": 79.719705,
                            "lat": 33.393438
                        }
                    },
                    {
                        "area_code": 1091,
                        "area_name": "改则县",
                        "area_type": 3,
                        "geo": null,
                        "sup_business_area": 0,
                        "point": {
                            "lng": 84.069664,
                            "lat": 32.310308
                        }
                    }
                ],
                "pinyin": [
                    "a",
                    "li"
                ],
                "py": "al",
                "point": {
                    "lng": 81.151894,
                    "lat": 30.406574
                }
            },
            {
                "area_code": 320,
                "area_name": "鞍山市",
                "area_type": 2,
                "geo": null,
                "sub": [
                    {
                        "area_code": 2136,
                        "area_name": "海城市",
                        "area_type": 3,
                        "geo": null,
                        "sup_business_area": 0,
                        "point": {
                            "lng": 122.691198,
                            "lat": 40.887189
                        }
                    },
                    {
                        "area_code": 2295,
                        "area_name": "台安县",
                        "area_type": 3,
                        "geo": null,
                        "sup_business_area": 0,
                        "point": {
                            "lng": 122.442459,
                            "lat": 41.418582
                        }
                    },
                    {
                        "area_code": 2441,
                        "area_name": "岫岩满族自治县",
                        "area_type": 3,
                        "geo": null,
                        "sup_business_area": 0,
                        "point": {
                            "lng": 123.28826,
                            "lat": 40.295761
                        }
                    },
                    {
                        "area_code": 8200,
                        "area_name": "千山区",
                        "area_type": 3,
                        "geo": null,
                        "sup_business_area": 0,
                        "point": {
                            "lng": 122.967465,
                            "lat": 41.080717
                        }
                    },
                    {
                        "area_code": 8201,
                        "area_name": "立山区",
                        "area_type": 3,
                        "geo": null,
                        "sup_business_area": 0,
                        "point": {
                            "lng": 123.036007,
                            "lat": 41.156136
                        }
                    },
                    {
                        "area_code": 8202,
                        "area_name": "铁西区",
                        "area_type": 3,
                        "geo": null,
                        "sup_business_area": 0,
                        "point": {
                            "lng": 122.975878,
                            "lat": 41.125543
                        }
                    },
                    {
                        "area_code": 8206,
                        "area_name": "铁东区",
                        "area_type": 3,
                        "geo": null,
                        "sup_business_area": 0,
                        "point": {
                            "lng": 122.997599,
                            "lat": 41.096274
                        }
                    }
                ],
                "pinyin": [
                    "an",
                    "shan"
                ],
                "py": "as",
                "point": {
                    "lng": 123.000974,
                    "lat": 41.114122
                }
            },
            {
                "area_code": 230,
                "area_name": "阿拉善盟",
                "area_type": 2,
                "geo": null,
                "sub": [
                    {
                        "area_code": 564,
                        "area_name": "阿拉善右旗",
                        "area_type": 3,
                        "geo": null,
                        "sup_business_area": 0,
                        "point": {
                            "lng": 101.673574,
                            "lat": 39.221399
                        }
                    },
                    {
                        "area_code": 986,
                        "area_name": "额济纳旗",
                        "area_type": 3,
                        "geo": null,
                        "sup_business_area": 0,
                        "point": {
                            "lng": 101.061921,
                            "lat": 41.960693
                        }
                    },
                    {
                        "area_code": 2883,
                        "area_name": "阿拉善左旗",
                        "area_type": 3,
                        "geo": null,
                        "sup_business_area": 0,
                        "point": {
                            "lng": 105.672858,
                            "lat": 38.839125
                        }
                    }
                ],
                "pinyin": [
                    "a",
                    "la",
                    "shan"
                ],
                "py": "als",
                "point": {
                    "lng": 105.735357,
                    "lat": 38.857806
                }
            },
            {
                "area_code": 130,
                "area_name": "安庆市",
                "area_type": 2,
                "geo": null,
                "sub": [
                    {
                        "area_code": 1108,
                        "area_name": "岳西县",
                        "area_type": 3,
                        "geo": null,
                        "sup_business_area": 0,
                        "point": {
                            "lng": 116.366545,
                            "lat": 30.855218
                        }
                    },
                    {
                        "area_code": 1111,
                        "area_name": "宿松县",
                        "area_type": 3,
                        "geo": null,
                        "sup_business_area": 0,
                        "point": {
                            "lng": 116.135723,
                            "lat": 30.15962
                        }
                    },
                    {
                        "area_code": 1543,
                        "area_name": "枞阳县",
                        "area_type": 3,
                        "geo": null,
                        "sup_business_area": 0,
                        "point": {
                            "lng": 117.226626,
                            "lat": 30.705784
                        }
                    },
                    {
                        "area_code": 1547,
                        "area_name": "怀宁县",
                        "area_type": 3,
                        "geo": null,
                        "sup_business_area": 0,
                        "point": {
                            "lng": 116.836333,
                            "lat": 30.739507
                        }
                    },
                    {
                        "area_code": 1952,
                        "area_name": "桐城市",
                        "area_type": 3,
                        "geo": null,
                        "sup_business_area": 0,
                        "point": {
                            "lng": 116.980626,
                            "lat": 31.041922
                        }
                    },
                    {
                        "area_code": 1954,
                        "area_name": "太湖县",
                        "area_type": 3,
                        "geo": null,
                        "sup_business_area": 0,
                        "point": {
                            "lng": 116.315326,
                            "lat": 30.460126
                        }
                    },
                    {
                        "area_code": 2299,
                        "area_name": "潜山县",
                        "area_type": 3,
                        "geo": null,
                        "sup_business_area": 0,
                        "point": {
                            "lng": 116.587941,
                            "lat": 30.636726
                        }
                    },
                    {
                        "area_code": 2302,
                        "area_name": "望江县",
                        "area_type": 3,
                        "geo": null,
                        "sup_business_area": 0,
                        "point": {
                            "lng": 116.700821,
                            "lat": 30.130087
                        }
                    },
                    {
                        "area_code": 7941,
                        "area_name": "宜秀区",
                        "area_type": 3,
                        "geo": null,
                        "sup_business_area": 0,
                        "point": {
                            "lng": 116.9937,
                            "lat": 30.619559
                        }
                    },
                    {
                        "area_code": 7942,
                        "area_name": "大观区",
                        "area_type": 3,
                        "geo": null,
                        "sup_business_area": 0,
                        "point": {
                            "lng": 117.040779,
                            "lat": 30.518198
                        }
                    },
                    {
                        "area_code": 7950,
                        "area_name": "迎江区",
                        "area_type": 3,
                        "geo": null,
                        "sup_business_area": 0,
                        "point": {
                            "lng": 117.097325,
                            "lat": 30.51757
                        }
                    }
                ],
                "pinyin": [
                    "an",
                    "qing"
                ],
                "py": "aq",
                "point": {
                    "lng": 117.070127,
                    "lat": 30.548594
                }
            },
            {
                "area_code": 263,
                "area_name": "安顺市",
                "area_type": 2,
                "geo": null,
                "sub": [
                    {
                        "area_code": 1208,
                        "area_name": "紫云苗族布依族自治县",
                        "area_type": 3,
                        "geo": null,
                        "sup_business_area": 0,
                        "point": {
                            "lng": 106.090454,
                            "lat": 25.757479
                        }
                    },
                    {
                        "area_code": 1209,
                        "area_name": "关岭布依族苗族自治县",
                        "area_type": 3,
                        "geo": null,
                        "sup_business_area": 0,
                        "point": {
                            "lng": 105.625807,
                            "lat": 25.949742
                        }
                    },
                    {
                        "area_code": 1210,
                        "area_name": "平坝县",
                        "area_type": 3,
                        "geo": null,
                        "sup_business_area": 0,
                        "point": {
                            "lng": 106.291405,
                            "lat": 26.408769
                        }
                    },
                    {
                        "area_code": 1638,
                        "area_name": "镇宁布依族苗族自治县",
                        "area_type": 3,
                        "geo": null,
                        "sup_business_area": 0,
                        "point": {
                            "lng": 105.777064,
                            "lat": 26.062885
                        }
                    },
                    {
                        "area_code": 2353,
                        "area_name": "西秀区",
                        "area_type": 3,
                        "geo": null,
                        "sup_business_area": 0,
                        "point": {
                            "lng": 105.971735,
                            "lat": 26.251621
                        }
                    },
                    {
                        "area_code": 2632,
                        "area_name": "普定县",
                        "area_type": 3,
                        "geo": null,
                        "sup_business_area": 0,
                        "point": {
                            "lng": 105.749399,
                            "lat": 26.307559
                        }
                    }
                ],
                "pinyin": [
                    "an",
                    "shun"
                ],
                "py": "as",
                "point": {
                    "lng": 105.952622,
                    "lat": 26.259904
                }
            },
            {
                "area_code": 324,
                "area_name": "安康市",
                "area_type": 2,
                "geo": null,
                "sub": [
                    {
                        "area_code": 1395,
                        "area_name": "石泉县",
                        "area_type": 3,
                        "geo": null,
                        "sup_business_area": 0,
                        "point": {
                            "lng": 108.254858,
                            "lat": 33.044589
                        }
                    },
                    {
                        "area_code": 1398,
                        "area_name": "汉滨区",
                        "area_type": 3,
                        "geo": null,
                        "sup_business_area": 0,
                        "point": {
                            "lng": 109.033566,
                            "lat": 32.701196
                        }
                    },
                    {
                        "area_code": 1484,
                        "area_name": "镇坪县",
                        "area_type": 3,
                        "geo": null,
                        "sup_business_area": 0,
                        "point": {
                            "lng": 109.533268,
                            "lat": 31.889699
                        }
                    },
                    {
                        "area_code": 1812,
                        "area_name": "汉阴县",
                        "area_type": 3,
                        "geo": null,
                        "sup_business_area": 0,
                        "point": {
                            "lng": 108.515165,
                            "lat": 32.899167
                        }
                    },
                    {
                        "area_code": 1933,
                        "area_name": "白河县",
                        "area_type": 3,
                        "geo": null,
                        "sup_business_area": 0,
                        "point": {
                            "lng": 110.119198,
                            "lat": 32.814802
                        }
                    },
                    {
                        "area_code": 2152,
                        "area_name": "宁陕县",
                        "area_type": 3,
                        "geo": null,
                        "sup_business_area": 0,
                        "point": {
                            "lng": 108.320843,
                            "lat": 33.316249
                        }
                    },
                    {
                        "area_code": 2240,
                        "area_name": "平利县",
                        "area_type": 3,
                        "geo": null,
                        "sup_business_area": 0,
                        "point": {
                            "lng": 109.368346,
                            "lat": 32.394837
                        }
                    },
                    {
                        "area_code": 2242,
                        "area_name": "紫阳县",
                        "area_type": 3,
                        "geo": null,
                        "sup_business_area": 0,
                        "point": {
                            "lng": 108.540783,
                            "lat": 32.52594
                        }
                    },
                    {
                        "area_code": 2519,
                        "area_name": "岚皋县",
                        "area_type": 3,
                        "geo": null,
                        "sup_business_area": 0,
                        "point": {
                            "lng": 108.908835,
                            "lat": 32.312831
                        }
                    },
                    {
                        "area_code": 2787,
                        "area_name": "旬阳县",
                        "area_type": 3,
                        "geo": null,
                        "sup_business_area": 0,
                        "point": {
                            "lng": 109.371757,
                            "lat": 32.839932
                        }
                    }
                ],
                "pinyin": [
                    "an",
                    "kang"
                ],
                "py": "ak",
                "point": {
                    "lng": 109.03592,
                    "lat": 32.690575
                }
            },
            {
                "area_code": 267,
                "area_name": "安阳市",
                "area_type": 2,
                "geo": null,
                "sub": [
                    {
                        "area_code": 1678,
                        "area_name": "滑县",
                        "area_type": 3,
                        "geo": null,
                        "sup_business_area": 0,
                        "point": {
                            "lng": 114.525855,
                            "lat": 35.581181
                        }
                    },
                    {
                        "area_code": 1926,
                        "area_name": "汤阴县",
                        "area_type": 3,
                        "geo": null,
                        "sup_business_area": 0,
                        "point": {
                            "lng": 114.363639,
                            "lat": 35.927724
                        }
                    },
                    {
                        "area_code": 2771,
                        "area_name": "安阳县",
                        "area_type": 3,
                        "geo": null,
                        "sup_business_area": 0,
                        "point": {
                            "lng": 114.238202,
                            "lat": 36.218866
                        }
                    },
                    {
                        "area_code": 2860,
                        "area_name": "林州市",
                        "area_type": 3,
                        "geo": null,
                        "sup_business_area": 0,
                        "point": {
                            "lng": 113.82567,
                            "lat": 36.088733
                        }
                    },
                    {
                        "area_code": 2864,
                        "area_name": "内黄县",
                        "area_type": 3,
                        "geo": null,
                        "sup_business_area": 0,
                        "point": {
                            "lng": 114.905961,
                            "lat": 35.952793
                        }
                    },
                    {
                        "area_code": 8080,
                        "area_name": "龙安区",
                        "area_type": 3,
                        "geo": null,
                        "sup_business_area": 0,
                        "point": {
                            "lng": 114.307484,
                            "lat": 36.081743
                        }
                    },
                    {
                        "area_code": 8337,
                        "area_name": "文峰区",
                        "area_type": 3,
                        "geo": null,
                        "sup_business_area": 0,
                        "point": {
                            "lng": 114.363254,
                            "lat": 36.096852
                        }
                    },
                    {
                        "area_code": 8339,
                        "area_name": "殷都区",
                        "area_type": 3,
                        "geo": null,
                        "sup_business_area": 0,
                        "point": {
                            "lng": 114.310047,
                            "lat": 36.1156
                        }
                    },
                    {
                        "area_code": 8340,
                        "area_name": "北关区",
                        "area_type": 3,
                        "geo": null,
                        "sup_business_area": 0,
                        "point": {
                            "lng": 114.361494,
                            "lat": 36.114818
                        }
                    }
                ],
                "pinyin": [
                    "an",
                    "yang"
                ],
                "py": "ay",
                "point": {
                    "lng": 114.3996,
                    "lat": 36.103649
                }
            },
            {
                "area_code": 185,
                "area_name": "阿坝藏族羌族自治州",
                "area_type": 2,
                "geo": null,
                "sub": [
                    {
                        "area_code": 590,
                        "area_name": "若尔盖县",
                        "area_type": 3,
                        "geo": null,
                        "sup_business_area": 0,
                        "point": {
                            "lng": 102.968252,
                            "lat": 33.582162
                        }
                    },
                    {
                        "area_code": 591,
                        "area_name": "九寨沟县",
                        "area_type": 3,
                        "geo": null,
                        "sup_business_area": 0,
                        "point": {
                            "lng": 104.242255,
                            "lat": 33.267212
                        }
                    },
                    {
                        "area_code": 592,
                        "area_name": "红原县",
                        "area_type": 3,
                        "geo": null,
                        "sup_business_area": 0,
                        "point": {
                            "lng": 102.550995,
                            "lat": 32.796577
                        }
                    },
                    {
                        "area_code": 595,
                        "area_name": "松潘县",
                        "area_type": 3,
                        "geo": null,
                        "sup_business_area": 0,
                        "point": {
                            "lng": 103.605472,
                            "lat": 32.643989
                        }
                    },
                    {
                        "area_code": 596,
                        "area_name": "黑水县",
                        "area_type": 3,
                        "geo": null,
                        "sup_business_area": 0,
                        "point": {
                            "lng": 102.996728,
                            "lat": 32.067792
                        }
                    },
                    {
                        "area_code": 597,
                        "area_name": "马尔康县",
                        "area_type": 3,
                        "geo": null,
                        "sup_business_area": 0,
                        "point": {
                            "lng": 102.212945,
                            "lat": 31.911789
                        }
                    },
                    {
                        "area_code": 598,
                        "area_name": "壤塘县",
                        "area_type": 3,
                        "geo": null,
                        "sup_business_area": 0,
                        "point": {
                            "lng": 100.985193,
                            "lat": 32.271144
                        }
                    },
                    {
                        "area_code": 603,
                        "area_name": "茂县",
                        "area_type": 3,
                        "geo": null,
                        "sup_business_area": 0,
                        "point": {
                            "lng": 103.859931,
                            "lat": 31.687338
                        }
                    },
                    {
                        "area_code": 605,
                        "area_name": "理县",
                        "area_type": 3,
                        "geo": null,
                        "sup_business_area": 0,
                        "point": {
                            "lng": 103.173511,
                            "lat": 31.44254
                        }
                    },
                    {
                        "area_code": 606,
                        "area_name": "小金县",
                        "area_type": 3,
                        "geo": null,
                        "sup_business_area": 0,
                        "point": {
                            "lng": 102.370826,
                            "lat": 31.005484
                        }
                    },
                    {
                        "area_code": 607,
                        "area_name": "金川县",
                        "area_type": 3,
                        "geo": null,
                        "sup_business_area": 0,
                        "point": {
                            "lng": 102.069861,
                            "lat": 31.481674
                        }
                    },
                    {
                        "area_code": 619,
                        "area_name": "汶川县",
                        "area_type": 3,
                        "geo": null,
                        "sup_business_area": 0,
                        "point": {
                            "lng": 103.596819,
                            "lat": 31.48286
                        }
                    },
                    {
                        "area_code": 1070,
                        "area_name": "阿坝县",
                        "area_type": 3,
                        "geo": null,
                        "sup_business_area": 0,
                        "point": {
                            "lng": 101.712951,
                            "lat": 32.908167
                        }
                    }
                ],
                "pinyin": [
                    "a",
                    "ba"
                ],
                "py": "ab",
                "point": {
                    "lng": 102.231186,
                    "lat": 31.905609
                }
            },
            {
                "area_code": 2911,
                "area_name": "澳门特别行政区",
                "area_type": 2,
                "geo": null,
                "sub": [
                    {
                        "area_code": 2915,
                        "area_name": "氹仔岛",
                        "area_type": 3,
                        "geo": null,
                        "sup_business_area": 0,
                        "point": {
                            "lng": 113.58422,
                            "lat": 22.162497
                        }
                    },
                    {
                        "area_code": 2916,
                        "area_name": "澳门半岛",
                        "area_type": 3,
                        "geo": null,
                        "sup_business_area": 0,
                        "point": {
                            "lng": 113.566432,
                            "lat": 22.195004
                        }
                    },
                    {
                        "area_code": 2917,
                        "area_name": "路氹城",
                        "area_type": 3,
                        "geo": null,
                        "sup_business_area": 0,
                        "point": {
                            "lng": 113.574069,
                            "lat": 22.145895
                        }
                    },
                    {
                        "area_code": 2918,
                        "area_name": "路环岛",
                        "area_type": 3,
                        "geo": null,
                        "sup_business_area": 0,
                        "point": {
                            "lng": 113.584914,
                            "lat": 22.12613
                        }
                    }
                ],
                "pinyin": [
                    "ao",
                    "men"
                ],
                "py": "am",
                "point": {
                    "lng": 113.549403,
                    "lat": 22.192961
                }
            }
        ]
    },
    {
        "char": "b",
        "citys": [
            {
                "area_code": 35,
                "area_name": "白银市",
                "area_type": 2,
                "geo": null,
                "sub": [
                    {
                        "area_code": 971,
                        "area_name": "靖远县",
                        "area_type": 3,
                        "geo": null,
                        "sup_business_area": 0,
                        "point": {
                            "lng": 104.693567,
                            "lat": 36.571039
                        }
                    },
                    {
                        "area_code": 972,
                        "area_name": "景泰县",
                        "area_type": 3,
                        "geo": null,
                        "sup_business_area": 0,
                        "point": {
                            "lng": 104.069565,
                            "lat": 37.187474
                        }
                    },
                    {
                        "area_code": 1532,
                        "area_name": "平川区",
                        "area_type": 3,
                        "geo": null,
                        "sup_business_area": 0,
                        "point": {
                            "lng": 104.831644,
                            "lat": 36.733439
                        }
                    },
                    {
                        "area_code": 1534,
                        "area_name": "会宁县",
                        "area_type": 3,
                        "geo": null,
                        "sup_business_area": 0,
                        "point": {
                            "lng": 105.059947,
                            "lat": 35.698616
                        }
                    },
                    {
                        "area_code": 7968,
                        "area_name": "白银区",
                        "area_type": 3,
                        "geo": null,
                        "sup_business_area": 0,
                        "point": {
                            "lng": 104.178818,
                            "lat": 36.540791
                        }
                    }
                ],
                "pinyin": [
                    "bai",
                    "yin"
                ],
                "py": "by",
                "point": {
                    "lng": 104.144182,
                    "lat": 36.550821
                }
            },
            {
                "area_code": 235,
                "area_name": "滨州市",
                "area_type": 2,
                "geo": null,
                "sub": [
                    {
                        "area_code": 1413,
                        "area_name": "惠民县",
                        "area_type": 3,
                        "geo": null,
                        "sup_business_area": 0,
                        "point": {
                            "lng": 117.515705,
                            "lat": 37.495838
                        }
                    },
                    {
                        "area_code": 1830,
                        "area_name": "沾化县",
                        "area_type": 3,
                        "geo": null,
                        "sup_business_area": 0,
                        "point": {
                            "lng": 118.090098,
                            "lat": 37.787251
                        }
                    },
                    {
                        "area_code": 2174,
                        "area_name": "博兴县",
                        "area_type": 3,
                        "geo": null,
                        "sup_business_area": 0,
                        "point": {
                            "lng": 118.117454,
                            "lat": 37.158968
                        }
                    },
                    {
                        "area_code": 2175,
                        "area_name": "邹平县",
                        "area_type": 3,
                        "geo": null,
                        "sup_business_area": 0,
                        "point": {
                            "lng": 117.749569,
                            "lat": 36.869121
                        }
                    },
                    {
                        "area_code": 2179,
                        "area_name": "阳信县",
                        "area_type": 3,
                        "geo": null,
                        "sup_business_area": 0,
                        "point": {
                            "lng": 117.584636,
                            "lat": 37.647231
                        }
                    },
                    {
                        "area_code": 2464,
                        "area_name": "滨城区",
                        "area_type": 3,
                        "geo": null,
                        "sup_business_area": 0,
                        "point": {
                            "lng": 118.029389,
                            "lat": 37.432906
                        }
                    },
                    {
                        "area_code": 2557,
                        "area_name": "无棣县",
                        "area_type": 3,
                        "geo": null,
                        "sup_business_area": 0,
                        "point": {
                            "lng": 117.632226,
                            "lat": 37.776001
                        }
                    }
                ],
                "pinyin": [
                    "bin",
                    "zhou"
                ],
                "py": "bz",
                "point": {
                    "lng": 117.9792,
                    "lat": 37.388387
                }
            },
            {
                "area_code": 51,
                "area_name": "白城市",
                "area_type": 2,
                "geo": null,
                "sub": [
                    {
                        "area_code": 464,
                        "area_name": "镇赉县",
                        "area_type": 3,
                        "geo": null,
                        "sup_business_area": 0,
                        "point": {
                            "lng": 123.206447,
                            "lat": 45.854065
                        }
                    },
                    {
                        "area_code": 466,
                        "area_name": "大安市",
                        "area_type": 3,
                        "geo": null,
                        "sup_business_area": 0,
                        "point": {
                            "lng": 124.299021,
                            "lat": 45.513165
                        }
                    },
                    {
                        "area_code": 467,
                        "area_name": "洮南市",
                        "area_type": 3,
                        "geo": null,
                        "sup_business_area": 0,
                        "point": {
                            "lng": 122.792806,
                            "lat": 45.341653
                        }
                    },
                    {
                        "area_code": 468,
                        "area_name": "洮北区",
                        "area_type": 3,
                        "geo": null,
                        "sup_business_area": 0,
                        "point": {
                            "lng": 122.857619,
                            "lat": 45.627627
                        }
                    },
                    {
                        "area_code": 475,
                        "area_name": "通榆县",
                        "area_type": 3,
                        "geo": null,
                        "sup_business_area": 0,
                        "point": {
                            "lng": 123.094829,
                            "lat": 44.81893
                        }
                    }
                ],
                "pinyin": [
                    "bai",
                    "cheng"
                ],
                "py": "bc",
                "point": {
                    "lng": 122.845302,
                    "lat": 45.6254
                }
            },
            {
                "area_code": 57,
                "area_name": "白山市",
                "area_type": 2,
                "geo": null,
                "sub": [
                    {
                        "area_code": 499,
                        "area_name": "靖宇县",
                        "area_type": 3,
                        "geo": null,
                        "sup_business_area": 0,
                        "point": {
                            "lng": 126.819787,
                            "lat": 42.394791
                        }
                    },
                    {
                        "area_code": 504,
                        "area_name": "抚松县",
                        "area_type": 3,
                        "geo": null,
                        "sup_business_area": 0,
                        "point": {
                            "lng": 127.286906,
                            "lat": 42.34783
                        }
                    },
                    {
                        "area_code": 505,
                        "area_name": "临江市",
                        "area_type": 3,
                        "geo": null,
                        "sup_business_area": 0,
                        "point": {
                            "lng": 126.924562,
                            "lat": 41.817708
                        }
                    },
                    {
                        "area_code": 508,
                        "area_name": "长白朝鲜族自治县",
                        "area_type": 3,
                        "geo": null,
                        "sup_business_area": 0,
                        "point": {
                            "lng": 128.207081,
                            "lat": 41.425774
                        }
                    },
                    {
                        "area_code": 8174,
                        "area_name": "江源区",
                        "area_type": 3,
                        "geo": null,
                        "sup_business_area": 0,
                        "point": {
                            "lng": 126.597271,
                            "lat": 42.062988
                        }
                    },
                    {
                        "area_code": 8175,
                        "area_name": "浑江区",
                        "area_type": 3,
                        "geo": null,
                        "sup_business_area": 0,
                        "point": {
                            "lng": 126.423619,
                            "lat": 41.950694
                        }
                    }
                ],
                "pinyin": [
                    "bai",
                    "shan"
                ],
                "py": "bs",
                "point": {
                    "lng": 126.431052,
                    "lat": 41.94643
                }
            },
            {
                "area_code": 86,
                "area_name": "巴音郭楞蒙古自治州",
                "area_type": 2,
                "geo": null,
                "sub": [
                    {
                        "area_code": 729,
                        "area_name": "尉犁县",
                        "area_type": 3,
                        "geo": null,
                        "sup_business_area": 0,
                        "point": {
                            "lng": 86.26718,
                            "lat": 41.350056
                        }
                    },
                    {
                        "area_code": 736,
                        "area_name": "库尔勒市",
                        "area_type": 3,
                        "geo": null,
                        "sup_business_area": 0,
                        "point": {
                            "lng": 86.180078,
                            "lat": 41.732616
                        }
                    },
                    {
                        "area_code": 737,
                        "area_name": "轮台县",
                        "area_type": 3,
                        "geo": null,
                        "sup_business_area": 0,
                        "point": {
                            "lng": 84.258323,
                            "lat": 41.783842
                        }
                    },
                    {
                        "area_code": 740,
                        "area_name": "和硕县",
                        "area_type": 3,
                        "geo": null,
                        "sup_business_area": 0,
                        "point": {
                            "lng": 86.870403,
                            "lat": 42.274353
                        }
                    },
                    {
                        "area_code": 741,
                        "area_name": "博湖县",
                        "area_type": 3,
                        "geo": null,
                        "sup_business_area": 0,
                        "point": {
                            "lng": 86.638908,
                            "lat": 41.986323
                        }
                    },
                    {
                        "area_code": 745,
                        "area_name": "焉耆回族自治县",
                        "area_type": 3,
                        "geo": null,
                        "sup_business_area": 0,
                        "point": {
                            "lng": 86.580871,
                            "lat": 42.064852
                        }
                    },
                    {
                        "area_code": 746,
                        "area_name": "和静县",
                        "area_type": 3,
                        "geo": null,
                        "sup_business_area": 0,
                        "point": {
                            "lng": 86.389473,
                            "lat": 42.328816
                        }
                    },
                    {
                        "area_code": 1052,
                        "area_name": "若羌县",
                        "area_type": 3,
                        "geo": null,
                        "sup_business_area": 0,
                        "point": {
                            "lng": 88.173814,
                            "lat": 39.02971
                        }
                    },
                    {
                        "area_code": 1093,
                        "area_name": "且末县",
                        "area_type": 3,
                        "geo": null,
                        "sup_business_area": 0,
                        "point": {
                            "lng": 85.536259,
                            "lat": 38.151371
                        }
                    }
                ],
                "pinyin": [
                    "ba",
                    "zhou"
                ],
                "py": "bz",
                "point": {
                    "lng": 86.151584,
                    "lat": 41.770226
                }
            },
            {
                "area_code": 88,
                "area_name": "博尔塔拉蒙古自治州",
                "area_type": 2,
                "geo": null,
                "sub": [
                    {
                        "area_code": 734,
                        "area_name": "温泉县",
                        "area_type": 3,
                        "geo": null,
                        "sup_business_area": 0,
                        "point": {
                            "lng": 81.031226,
                            "lat": 44.974876
                        }
                    },
                    {
                        "area_code": 768,
                        "area_name": "精河县",
                        "area_type": 3,
                        "geo": null,
                        "sup_business_area": 0,
                        "point": {
                            "lng": 82.900625,
                            "lat": 44.606596
                        }
                    },
                    {
                        "area_code": 772,
                        "area_name": "博乐市",
                        "area_type": 3,
                        "geo": null,
                        "sup_business_area": 0,
                        "point": {
                            "lng": 82.057595,
                            "lat": 44.859875
                        }
                    }
                ],
                "pinyin": [
                    "bo",
                    "zhou"
                ],
                "py": "bz",
                "point": {
                    "lng": 82.073064,
                    "lat": 44.912168
                }
            },
            {
                "area_code": 203,
                "area_name": "百色市",
                "area_type": 2,
                "geo": null,
                "sub": [
                    {
                        "area_code": 1185,
                        "area_name": "乐业县",
                        "area_type": 3,
                        "geo": null,
                        "sup_business_area": 0,
                        "point": {
                            "lng": 106.56805,
                            "lat": 24.792147
                        }
                    },
                    {
                        "area_code": 1186,
                        "area_name": "隆林各族自治县",
                        "area_type": 3,
                        "geo": null,
                        "sup_business_area": 0,
                        "point": {
                            "lng": 105.35035,
                            "lat": 24.776872
                        }
                    },
                    {
                        "area_code": 1189,
                        "area_name": "田东县",
                        "area_type": 3,
                        "geo": null,
                        "sup_business_area": 0,
                        "point": {
                            "lng": 107.132579,
                            "lat": 23.603171
                        }
                    },
                    {
                        "area_code": 1191,
                        "area_name": "靖西县",
                        "area_type": 3,
                        "geo": null,
                        "sup_business_area": 0,
                        "point": {
                            "lng": 106.424144,
                            "lat": 23.140141
                        }
                    },
                    {
                        "area_code": 1619,
                        "area_name": "田林县",
                        "area_type": 3,
                        "geo": null,
                        "sup_business_area": 0,
                        "point": {
                            "lng": 106.23502,
                            "lat": 24.300406
                        }
                    },
                    {
                        "area_code": 1624,
                        "area_name": "德保县",
                        "area_type": 3,
                        "geo": null,
                        "sup_business_area": 0,
                        "point": {
                            "lng": 106.622083,
                            "lat": 23.329092
                        }
                    },
                    {
                        "area_code": 1625,
                        "area_name": "那坡县",
                        "area_type": 3,
                        "geo": null,
                        "sup_business_area": 0,
                        "point": {
                            "lng": 105.839073,
                            "lat": 23.393682
                        }
                    },
                    {
                        "area_code": 2011,
                        "area_name": "西林县",
                        "area_type": 3,
                        "geo": null,
                        "sup_business_area": 0,
                        "point": {
                            "lng": 105.100325,
                            "lat": 24.495635
                        }
                    },
                    {
                        "area_code": 2014,
                        "area_name": "田阳县",
                        "area_type": 3,
                        "geo": null,
                        "sup_business_area": 0,
                        "point": {
                            "lng": 106.922082,
                            "lat": 23.741978
                        }
                    },
                    {
                        "area_code": 2343,
                        "area_name": "平果县",
                        "area_type": 3,
                        "geo": null,
                        "sup_business_area": 0,
                        "point": {
                            "lng": 107.596451,
                            "lat": 23.335052
                        }
                    },
                    {
                        "area_code": 2624,
                        "area_name": "右江区",
                        "area_type": 3,
                        "geo": null,
                        "sup_business_area": 0,
                        "point": {
                            "lng": 106.625559,
                            "lat": 23.906834
                        }
                    },
                    {
                        "area_code": 2808,
                        "area_name": "凌云县",
                        "area_type": 3,
                        "geo": null,
                        "sup_business_area": 0,
                        "point": {
                            "lng": 106.568005,
                            "lat": 24.353826
                        }
                    }
                ],
                "pinyin": [
                    "bai",
                    "se"
                ],
                "py": "bs",
                "point": {
                    "lng": 106.624969,
                    "lat": 23.907845
                }
            },
            {
                "area_code": 295,
                "area_name": "北海市",
                "area_type": 2,
                "geo": null,
                "sub": [
                    {
                        "area_code": 2754,
                        "area_name": "合浦县",
                        "area_type": 3,
                        "geo": null,
                        "sup_business_area": 0,
                        "point": {
                            "lng": 109.213689,
                            "lat": 21.667194
                        }
                    },
                    {
                        "area_code": 7982,
                        "area_name": "银海区",
                        "area_type": 3,
                        "geo": null,
                        "sup_business_area": 0,
                        "point": {
                            "lng": 109.145705,
                            "lat": 21.454389
                        }
                    },
                    {
                        "area_code": 7988,
                        "area_name": "海城区",
                        "area_type": 3,
                        "geo": null,
                        "sup_business_area": 0,
                        "point": {
                            "lng": 109.12402,
                            "lat": 21.481124
                        }
                    },
                    {
                        "area_code": 8326,
                        "area_name": "铁山港区",
                        "area_type": 3,
                        "geo": null,
                        "sup_business_area": 0,
                        "point": {
                            "lng": 109.428074,
                            "lat": 21.535279
                        }
                    }
                ],
                "pinyin": [
                    "bei",
                    "hai"
                ],
                "py": "bh",
                "point": {
                    "lng": 109.126614,
                    "lat": 21.486955
                }
            },
            {
                "area_code": 227,
                "area_name": "本溪市",
                "area_type": 2,
                "geo": null,
                "sub": [
                    {
                        "area_code": 1363,
                        "area_name": "本溪满族自治县",
                        "area_type": 3,
                        "geo": null,
                        "sup_business_area": 0,
                        "point": {
                            "lng": 124.12852,
                            "lat": 41.308488
                        }
                    },
                    {
                        "area_code": 1938,
                        "area_name": "桓仁满族自治县",
                        "area_type": 3,
                        "geo": null,
                        "sup_business_area": 0,
                        "point": {
                            "lng": 125.367504,
                            "lat": 41.272885
                        }
                    },
                    {
                        "area_code": 8183,
                        "area_name": "明山区",
                        "area_type": 3,
                        "geo": null,
                        "sup_business_area": 0,
                        "point": {
                            "lng": 123.823425,
                            "lat": 41.314908
                        }
                    },
                    {
                        "area_code": 8216,
                        "area_name": "平山区",
                        "area_type": 3,
                        "geo": null,
                        "sup_business_area": 0,
                        "point": {
                            "lng": 123.689921,
                            "lat": 41.227193
                        }
                    },
                    {
                        "area_code": 8219,
                        "area_name": "溪湖区",
                        "area_type": 3,
                        "geo": null,
                        "sup_business_area": 0,
                        "point": {
                            "lng": 123.774299,
                            "lat": 41.334897
                        }
                    },
                    {
                        "area_code": 8221,
                        "area_name": "南芬区",
                        "area_type": 3,
                        "geo": null,
                        "sup_business_area": 0,
                        "point": {
                            "lng": 123.751558,
                            "lat": 41.106404
                        }
                    }
                ],
                "pinyin": [
                    "ben",
                    "xi"
                ],
                "py": "bx",
                "point": {
                    "lng": 123.773468,
                    "lat": 41.299847
                }
            },
            {
                "area_code": 1217,
                "area_name": "保亭黎族苗族自治县",
                "area_type": 2,
                "geo": null,
                "pinyin": [
                    "bao",
                    "ting"
                ],
                "py": "bt",
                "point": {
                    "lng": 109.709086,
                    "lat": 18.645177
                }
            },
            {
                "area_code": 2359,
                "area_name": "白沙黎族自治县",
                "area_type": 2,
                "geo": null,
                "pinyin": [
                    "bai",
                    "sha"
                ],
                "py": "bs",
                "point": {
                    "lng": 109.458142,
                    "lat": 19.231702
                }
            },
            {
                "area_code": 169,
                "area_name": "巴彦淖尔市",
                "area_type": 2,
                "geo": null,
                "sub": [
                    {
                        "area_code": 562,
                        "area_name": "乌拉特中旗",
                        "area_type": 3,
                        "geo": null,
                        "sup_business_area": 0,
                        "point": {
                            "lng": 108.533076,
                            "lat": 41.573217
                        }
                    },
                    {
                        "area_code": 1371,
                        "area_name": "乌拉特后旗",
                        "area_type": 3,
                        "geo": null,
                        "sup_business_area": 0,
                        "point": {
                            "lng": 107.081354,
                            "lat": 41.090065
                        }
                    },
                    {
                        "area_code": 1373,
                        "area_name": "五原县",
                        "area_type": 3,
                        "geo": null,
                        "sup_business_area": 0,
                        "point": {
                            "lng": 108.273793,
                            "lat": 41.09484
                        }
                    },
                    {
                        "area_code": 1786,
                        "area_name": "乌拉特前旗",
                        "area_type": 3,
                        "geo": null,
                        "sup_business_area": 0,
                        "point": {
                            "lng": 108.658856,
                            "lat": 40.742322
                        }
                    },
                    {
                        "area_code": 1787,
                        "area_name": "临河区",
                        "area_type": 3,
                        "geo": null,
                        "sup_business_area": 0,
                        "point": {
                            "lng": 107.393217,
                            "lat": 40.772692
                        }
                    },
                    {
                        "area_code": 2442,
                        "area_name": "杭锦后旗",
                        "area_type": 3,
                        "geo": null,
                        "sup_business_area": 0,
                        "point": {
                            "lng": 107.157512,
                            "lat": 40.89222
                        }
                    },
                    {
                        "area_code": 2677,
                        "area_name": "磴口县",
                        "area_type": 3,
                        "geo": null,
                        "sup_business_area": 0,
                        "point": {
                            "lng": 107.015158,
                            "lat": 40.336541
                        }
                    }
                ],
                "pinyin": [
                    "ba",
                    "yan",
                    "nao",
                    "er"
                ],
                "py": "byne",
                "point": {
                    "lng": 107.394129,
                    "lat": 40.749427
                }
            },
            {
                "area_code": 229,
                "area_name": "包头市",
                "area_type": 2,
                "geo": null,
                "sub": [
                    {
                        "area_code": 561,
                        "area_name": "达尔罕茂明安联合旗",
                        "area_type": 3,
                        "geo": null,
                        "sup_business_area": 0,
                        "point": {
                            "lng": 110.439128,
                            "lat": 41.704495
                        }
                    },
                    {
                        "area_code": 566,
                        "area_name": "白云鄂博矿区",
                        "area_type": 3,
                        "geo": null,
                        "sup_business_area": 0,
                        "point": {
                            "lng": 109.980347,
                            "lat": 41.775121
                        }
                    },
                    {
                        "area_code": 1372,
                        "area_name": "固阳县",
                        "area_type": 3,
                        "geo": null,
                        "sup_business_area": 0,
                        "point": {
                            "lng": 110.067137,
                            "lat": 41.040272
                        }
                    },
                    {
                        "area_code": 2443,
                        "area_name": "土默特右旗",
                        "area_type": 3,
                        "geo": null,
                        "sup_business_area": 0,
                        "point": {
                            "lng": 110.5306,
                            "lat": 40.575157
                        }
                    },
                    {
                        "area_code": 8225,
                        "area_name": "石拐区",
                        "area_type": 3,
                        "geo": null,
                        "sup_business_area": 0,
                        "point": {
                            "lng": 110.27865,
                            "lat": 40.678341
                        }
                    },
                    {
                        "area_code": 8226,
                        "area_name": "九原区",
                        "area_type": 3,
                        "geo": null,
                        "sup_business_area": 0,
                        "point": {
                            "lng": 109.973785,
                            "lat": 40.615835
                        }
                    },
                    {
                        "area_code": 8227,
                        "area_name": "东河区",
                        "area_type": 3,
                        "geo": null,
                        "sup_business_area": 0,
                        "point": {
                            "lng": 110.049564,
                            "lat": 40.582761
                        }
                    },
                    {
                        "area_code": 8232,
                        "area_name": "昆都仑区",
                        "area_type": 3,
                        "geo": null,
                        "sup_business_area": 0,
                        "point": {
                            "lng": 109.845126,
                            "lat": 40.64763
                        }
                    },
                    {
                        "area_code": 8233,
                        "area_name": "青山区",
                        "area_type": 3,
                        "geo": null,
                        "sup_business_area": 0,
                        "point": {
                            "lng": 109.908818,
                            "lat": 40.651783
                        }
                    }
                ],
                "pinyin": [
                    "bao",
                    "tou"
                ],
                "py": "bt",
                "point": {
                    "lng": 109.846755,
                    "lat": 40.663636
                }
            },
            {
                "area_code": 126,
                "area_name": "蚌埠市",
                "area_type": 2,
                "geo": null,
                "sub": [
                    {
                        "area_code": 1099,
                        "area_name": "固镇县",
                        "area_type": 3,
                        "geo": null,
                        "sup_business_area": 0,
                        "point": {
                            "lng": 117.323209,
                            "lat": 33.323459
                        }
                    },
                    {
                        "area_code": 1539,
                        "area_name": "怀远县",
                        "area_type": 3,
                        "geo": null,
                        "sup_business_area": 0,
                        "point": {
                            "lng": 117.211646,
                            "lat": 32.976006
                        }
                    },
                    {
                        "area_code": 1893,
                        "area_name": "五河县",
                        "area_type": 3,
                        "geo": null,
                        "sup_business_area": 0,
                        "point": {
                            "lng": 117.89188,
                            "lat": 33.150821
                        }
                    },
                    {
                        "area_code": 7943,
                        "area_name": "淮上区",
                        "area_type": 3,
                        "geo": null,
                        "sup_business_area": 0,
                        "point": {
                            "lng": 117.366343,
                            "lat": 32.970707
                        }
                    },
                    {
                        "area_code": 7947,
                        "area_name": "禹会区",
                        "area_type": 3,
                        "geo": null,
                        "sup_business_area": 0,
                        "point": {
                            "lng": 117.348562,
                            "lat": 32.935422
                        }
                    },
                    {
                        "area_code": 7951,
                        "area_name": "蚌山区",
                        "area_type": 3,
                        "geo": null,
                        "sup_business_area": 0,
                        "point": {
                            "lng": 117.374195,
                            "lat": 32.950802
                        }
                    },
                    {
                        "area_code": 7952,
                        "area_name": "龙子湖区",
                        "area_type": 3,
                        "geo": null,
                        "sup_business_area": 0,
                        "point": {
                            "lng": 117.399985,
                            "lat": 32.948736
                        }
                    }
                ],
                "pinyin": [
                    "beng",
                    "bu"
                ],
                "py": "bb",
                "point": {
                    "lng": 117.395835,
                    "lat": 32.921498
                }
            },
            {
                "area_code": 188,
                "area_name": "亳州市",
                "area_type": 2,
                "geo": null,
                "sub": [
                    {
                        "area_code": 1100,
                        "area_name": "蒙城县",
                        "area_type": 3,
                        "geo": null,
                        "sup_business_area": 0,
                        "point": {
                            "lng": 116.571087,
                            "lat": 33.271605
                        }
                    },
                    {
                        "area_code": 1540,
                        "area_name": "利辛县",
                        "area_type": 3,
                        "geo": null,
                        "sup_business_area": 0,
                        "point": {
                            "lng": 116.21499,
                            "lat": 33.150559
                        }
                    },
                    {
                        "area_code": 2225,
                        "area_name": "谯城区",
                        "area_type": 3,
                        "geo": null,
                        "sup_business_area": 0,
                        "point": {
                            "lng": 115.785611,
                            "lat": 33.882575
                        }
                    },
                    {
                        "area_code": 2711,
                        "area_name": "涡阳县",
                        "area_type": 3,
                        "geo": null,
                        "sup_business_area": 0,
                        "point": {
                            "lng": 116.22242,
                            "lat": 33.498513
                        }
                    }
                ],
                "pinyin": [
                    "bo",
                    "zhou"
                ],
                "py": "bz",
                "point": {
                    "lng": 115.785767,
                    "lat": 33.850774
                }
            },
            {
                "area_code": 206,
                "area_name": "毕节地区",
                "area_type": 2,
                "geo": null,
                "sub": [
                    {
                        "area_code": 392,
                        "area_name": "赫章县",
                        "area_type": 3,
                        "geo": null,
                        "sup_business_area": 0,
                        "point": {
                            "lng": 104.638175,
                            "lat": 27.135471
                        }
                    },
                    {
                        "area_code": 1001,
                        "area_name": "威宁彝族回族苗族自治县",
                        "area_type": 3,
                        "geo": null,
                        "sup_business_area": 0,
                        "point": {
                            "lng": 104.137884,
                            "lat": 26.912947
                        }
                    },
                    {
                        "area_code": 1203,
                        "area_name": "黔西县",
                        "area_type": 3,
                        "geo": null,
                        "sup_business_area": 0,
                        "point": {
                            "lng": 106.120805,
                            "lat": 27.050413
                        }
                    },
                    {
                        "area_code": 1207,
                        "area_name": "纳雍县",
                        "area_type": 3,
                        "geo": null,
                        "sup_business_area": 0,
                        "point": {
                            "lng": 105.283876,
                            "lat": 26.808509
                        }
                    },
                    {
                        "area_code": 1918,
                        "area_name": "金沙县",
                        "area_type": 3,
                        "geo": null,
                        "sup_business_area": 0,
                        "point": {
                            "lng": 106.275141,
                            "lat": 27.448578
                        }
                    },
                    {
                        "area_code": 2027,
                        "area_name": "织金县",
                        "area_type": 3,
                        "geo": null,
                        "sup_business_area": 0,
                        "point": {
                            "lng": 105.792167,
                            "lat": 26.648167
                        }
                    },
                    {
                        "area_code": 2552,
                        "area_name": "大方县",
                        "area_type": 3,
                        "geo": null,
                        "sup_business_area": 0,
                        "point": {
                            "lng": 105.694534,
                            "lat": 27.23128
                        }
                    },
                    {
                        "area_code": 2764,
                        "area_name": "毕节市",
                        "area_type": 3,
                        "geo": null,
                        "sup_business_area": 0,
                        "point": {
                            "lng": 105.333323,
                            "lat": 27.408562
                        }
                    }
                ],
                "pinyin": [
                    "bi",
                    "jie"
                ],
                "py": "bj",
                "point": {
                    "lng": 105.300492,
                    "lat": 27.302612
                }
            },
            {
                "area_code": 307,
                "area_name": "保定市",
                "area_type": 2,
                "geo": null,
                "sub": [
                    {
                        "area_code": 1226,
                        "area_name": "高碑店市",
                        "area_type": 3,
                        "geo": null,
                        "sup_business_area": 0,
                        "point": {
                            "lng": 115.8803,
                            "lat": 39.332312
                        }
                    },
                    {
                        "area_code": 1227,
                        "area_name": "安新县",
                        "area_type": 3,
                        "geo": null,
                        "sup_business_area": 0,
                        "point": {
                            "lng": 115.942065,
                            "lat": 38.941589
                        }
                    },
                    {
                        "area_code": 1228,
                        "area_name": "满城县",
                        "area_type": 3,
                        "geo": null,
                        "sup_business_area": 0,
                        "point": {
                            "lng": 115.328545,
                            "lat": 38.955261
                        }
                    },
                    {
                        "area_code": 1229,
                        "area_name": "阜平县",
                        "area_type": 3,
                        "geo": null,
                        "sup_business_area": 0,
                        "point": {
                            "lng": 114.201872,
                            "lat": 38.854905
                        }
                    },
                    {
                        "area_code": 1231,
                        "area_name": "蠡县",
                        "area_type": 3,
                        "geo": null,
                        "sup_business_area": 0,
                        "point": {
                            "lng": 115.590043,
                            "lat": 38.494168
                        }
                    },
                    {
                        "area_code": 1232,
                        "area_name": "定州市",
                        "area_type": 3,
                        "geo": null,
                        "sup_business_area": 0,
                        "point": {
                            "lng": 115.057407,
                            "lat": 38.465839
                        }
                    },
                    {
                        "area_code": 1649,
                        "area_name": "涞源县",
                        "area_type": 3,
                        "geo": null,
                        "sup_business_area": 0,
                        "point": {
                            "lng": 114.700714,
                            "lat": 39.366256
                        }
                    },
                    {
                        "area_code": 1650,
                        "area_name": "雄县",
                        "area_type": 3,
                        "geo": null,
                        "sup_business_area": 0,
                        "point": {
                            "lng": 116.115389,
                            "lat": 39.000146
                        }
                    },
                    {
                        "area_code": 1651,
                        "area_name": "定兴县",
                        "area_type": 3,
                        "geo": null,
                        "sup_business_area": 0,
                        "point": {
                            "lng": 115.81431,
                            "lat": 39.269474
                        }
                    },
                    {
                        "area_code": 1653,
                        "area_name": "清苑县",
                        "area_type": 3,
                        "geo": null,
                        "sup_business_area": 0,
                        "point": {
                            "lng": 115.496495,
                            "lat": 38.770963
                        }
                    },
                    {
                        "area_code": 1655,
                        "area_name": "曲阳县",
                        "area_type": 3,
                        "geo": null,
                        "sup_business_area": 0,
                        "point": {
                            "lng": 114.751465,
                            "lat": 38.628394
                        }
                    },
                    {
                        "area_code": 2036,
                        "area_name": "容城县",
                        "area_type": 3,
                        "geo": null,
                        "sup_business_area": 0,
                        "point": {
                            "lng": 115.868272,
                            "lat": 39.048509
                        }
                    },
                    {
                        "area_code": 2037,
                        "area_name": "易县",
                        "area_type": 3,
                        "geo": null,
                        "sup_business_area": 0,
                        "point": {
                            "lng": 115.505068,
                            "lat": 39.354911
                        }
                    },
                    {
                        "area_code": 2039,
                        "area_name": "高阳县",
                        "area_type": 3,
                        "geo": null,
                        "sup_business_area": 0,
                        "point": {
                            "lng": 115.785288,
                            "lat": 38.706225
                        }
                    },
                    {
                        "area_code": 2040,
                        "area_name": "安国市",
                        "area_type": 3,
                        "geo": null,
                        "sup_business_area": 0,
                        "point": {
                            "lng": 115.333047,
                            "lat": 38.424781
                        }
                    },
                    {
                        "area_code": 2234,
                        "area_name": "涿州市",
                        "area_type": 3,
                        "geo": null,
                        "sup_business_area": 0,
                        "point": {
                            "lng": 115.981009,
                            "lat": 39.490959
                        }
                    },
                    {
                        "area_code": 2363,
                        "area_name": "徐水县",
                        "area_type": 3,
                        "geo": null,
                        "sup_business_area": 0,
                        "point": {
                            "lng": 115.66234,
                            "lat": 39.02476
                        }
                    },
                    {
                        "area_code": 2364,
                        "area_name": "顺平县",
                        "area_type": 3,
                        "geo": null,
                        "sup_business_area": 0,
                        "point": {
                            "lng": 115.142028,
                            "lat": 38.843249
                        }
                    },
                    {
                        "area_code": 2365,
                        "area_name": "博野县",
                        "area_type": 3,
                        "geo": null,
                        "sup_business_area": 0,
                        "point": {
                            "lng": 115.470859,
                            "lat": 38.463761
                        }
                    },
                    {
                        "area_code": 2509,
                        "area_name": "涞水县",
                        "area_type": 3,
                        "geo": null,
                        "sup_business_area": 0,
                        "point": {
                            "lng": 115.720322,
                            "lat": 39.400218
                        }
                    },
                    {
                        "area_code": 2636,
                        "area_name": "唐县",
                        "area_type": 3,
                        "geo": null,
                        "sup_business_area": 0,
                        "point": {
                            "lng": 114.989397,
                            "lat": 38.754021
                        }
                    },
                    {
                        "area_code": 2810,
                        "area_name": "望都县",
                        "area_type": 3,
                        "geo": null,
                        "sup_business_area": 0,
                        "point": {
                            "lng": 115.162211,
                            "lat": 38.714761
                        }
                    },
                    {
                        "area_code": 8014,
                        "area_name": "新市区",
                        "area_type": 3,
                        "geo": null,
                        "sup_business_area": 0,
                        "point": {
                            "lng": 115.464811,
                            "lat": 38.883777
                        }
                    },
                    {
                        "area_code": 8018,
                        "area_name": "北市区",
                        "area_type": 3,
                        "geo": null,
                        "sup_business_area": 0,
                        "point": {
                            "lng": 115.503668,
                            "lat": 38.888219
                        }
                    },
                    {
                        "area_code": 8022,
                        "area_name": "南市区",
                        "area_type": 3,
                        "geo": null,
                        "sup_business_area": 0,
                        "point": {
                            "lng": 115.53515,
                            "lat": 38.86057
                        }
                    }
                ],
                "pinyin": [
                    "bao",
                    "ding"
                ],
                "py": "bd",
                "point": {
                    "lng": 115.471052,
                    "lat": 38.880055
                }
            },
            {
                "area_code": 171,
                "area_name": "宝鸡市",
                "area_type": 2,
                "geo": null,
                "sub": [
                    {
                        "area_code": 1387,
                        "area_name": "麟游县",
                        "area_type": 3,
                        "geo": null,
                        "sup_business_area": 0,
                        "point": {
                            "lng": 107.799906,
                            "lat": 34.683872
                        }
                    },